[
  {
    "ProviderName": "BRIGHTSIDE ACADEMY EARLY CARE & EDUCATIO",
    "AddressLine1": "915 N BROAD ST # 19",
    "City": "PHILADELPHIA",
    "State": "PA",
    "ZipCode": "19123",
    "ZipExtention": "1013",
    "Latitude": "39.970664",
    "Longitude": "-75.159515",
    "PhoneNumber": "4122015501"
  },
  {
    "ProviderName": "HEAD START - TENTH STREET CENTER",
    "AddressLine1": "1020 S 10TH ST",
    "City": "PHILADELPHIA",
    "State": "PA",
    "ZipCode": "19147",
    "ZipExtention": "3828",
    "Latitude": "39.93739",
    "Longitude": "-75.159881",
    "PhoneNumber": "2154719782"
  },
  {
    "ProviderName": "UNITED COMMUNITIES SOUTHWARK E S",
    "AddressLine1": "1835 S 9TH ST",
    "City": "PHILADELPHIA",
    "State": "PA",
    "ZipCode": "19148",
    "ZipExtention": "1661",
    "Latitude": "39.926046",
    "Longitude": "-75.160589",
    "PhoneNumber": "2154686111"
  },
  {
    "ProviderName": "PRECIOUS BABIES LRNG ACADEMY DAYCARE",
    "AddressLine1": "5810 OLD YORK RD",
    "City": "PHILADELPHIA",
    "State": "PA",
    "ZipCode": "19141",
    "ZipExtention": "2506",
    "Latitude": "40.04198",
    "Longitude": "-75.144505",
    "PhoneNumber": "2154244144"
  },
  {
    "ProviderName": "MONTGOMERY EARLY LEARNING CENTERS AT POINT BREEZE",
    "AddressLine1": "2140 FEDERAL ST",
    "City": "PHILADELPHIA",
    "State": "PA",
    "ZipCode": "19146",
    "ZipExtention": "",
    "Latitude": "39.937737",
    "Longitude": "-75.180087",
    "PhoneNumber": "4847042484"
  }
]
